{
  "results": [
    {
      "id": 2193733,
      "name": "Auckland",
      "latitude": -36.84853,
      "longitude": 174.76349,
      "elevation": 43,
      "feature_code": "PPLA",
      "country_code": "NZ",
      "admin1_id": 2193734,
      "admin2_id": 2193732,
      "timezone": "Pacific/Auckland",
      "population": 1531400,
      "country_id": 2186224,
      "country": "New Zealand",
      "admin1": "Auckland",
      "admin2": "Auckland"
    },
    {
      "id": 5550202,
      "name": "Auckland",
      "latitude": 36.588,
      "longitude": -119.10678,
      "elevation": 390,
      "feature_code": "PPL",
      "country_code": "US",
      "admin1_id": 5332921,
      "admin2_id": 5403789,
      "timezone": "America/Los_Angeles",
      "country_id": 6252001,
      "country": "United States",
      "admin1": "California",
      "admin2": "Tulare"
    },
    {
      "id": 7778818,
      "name": "Auckland Park",
      "latitude": -26.18135,
      "longitude": 28.00385,
      "elevation": 1702,
      "feature_code": "PPL",
      "country_code": "ZA",
      "admin1_id": 1085594,
      "admin2_id": 8347354,
      "admin3_id": 8347476,
      "timezone": "Africa/Johannesburg",
      "country_id": 953987,
      "country": "South Africa",
      "admin1": "Gauteng",
      "admin2": "City of Johannesburg Metropolitan Municipality",
      "admin3": "City of Johannesburg"
    },
    {
      "id": 2193728,
      "name": "Auckland Island",
      "latitude": -50.71667,
      "longitude": 166.13333,
      "elevation": 149,
      "feature_code": "ISL",
      "country_code": "NZ",
      "timezone": "Pacific/Auckland",
      "country_id": 2186224,
      "country": "New Zealand"
    },
    {
      "id": 2193727,
      "name": "Auckland Islands",
      "latitude": -50.66667,
      "longitude": 166.5,
      "elevation": 9999,
      "feature_code": "ISLS",
      "country_code": "NZ",
      "timezone": "Pacific/Auckland",
      "country_id": 2186224,
      "country": "New Zealand"
    },
    {
      "id": 9538451,
      "name": "Auckland Airport",
      "latitude": -36.99895,
      "longitude": 174.78651,
      "elevation": 15,
      "feature_code": "PPLL",
      "country_code": "NZ",
      "admin1_id": 2193734,
      "admin2_id": 2193732,
      "timezone": "Pacific/Auckland",
      "country_id": 2186224,
      "country": "New Zealand",
      "admin1": "Auckland",
      "admin2": "Auckland"
    },
    {
      "id": 6232134,
      "name": "Auckland International Airport",
      "latitude": -37.00806,
      "longitude": 174.79167,
      "elevation": 7,
      "feature_code": "AIRP",
      "country_code": "NZ",
      "admin1_id": 2193734,
      "admin2_id": 2193732,
      "timezone": "Pacific/Auckland",
      "country_id": 2186224,
      "country": "New Zealand",
      "admin1": "Auckland",
      "admin2": "Auckland"
    }
  ],
  "generationtime_ms": 0.18453598
}