{
  "results": [
    {
      "id": 1854346,
      "name": "Great Liu Kiu",
      "latitude": 26.50687,
      "longitude": 127.94581,
      "elevation": 23,
      "feature_code": "ISL",
      "country_code": "JP",
      "admin1_id": 1854345,
      "admin2_id": 1858371,
      "admin3_id": 1863624,
      "timezone": "Asia/Tokyo",
      "population": 1466870,
      "country_id": 1861060,
      "country": "Japan",
      "admin1": "Okinawa",
      "admin2": "Kunigami-gun",
      "admin3": "Ginoza Son"
    },
    {
      "id": 1894616,
      "name": "Okinawa",
      "latitude": 26.33583,
      "longitude": 127.80139,
      "elevation": 112,
      "feature_code": "PPLA2",
      "country_code": "JP",
      "admin1_id": 1854345,
      "admin2_id": 1854344,
      "timezone": "Asia/Tokyo",
      "population": 142752,
      "country_id": 1861060,
      "country": "Japan",
      "admin1": "Okinawa",
      "admin2": "Okinawa Shi"
    },
    {
      "id": 3919505,
      "name": "Okinawa",
      "latitude": -17.22026,
      "longitude": -62.89589,
      "elevation": 250,
      "feature_code": "PPL",
      "country_code": "BO",
      "admin1_id": 3904907,
      "timezone": "America/La_Paz",
      "country_id": 3923057,
      "country": "Bolivia",
      "admin1": "Santa Cruz Department"
    },
    {
      "id": 9811874,
      "name": "Okinawa",
      "latitude": 22.12482,
      "longitude": -99.18271,
      "elevation": 228,
      "feature_code": "PPL",
      "country_code": "MX",
      "admin1_id": 3985605,
      "admin2_id": 8583302,
      "timezone": "America/Mexico_City",
      "country_id": 3996063,
      "country": "Mexico",
      "admin1": "San Luis Potosí",
      "admin2": "Ciudad Valles"
    },
    {
      "id": 12522475,
      "name": "Okinawa Uno",
      "latitude": -17.38591,
      "longitude": -62.8967,
      "elevation": 283,
      "feature_code": "PPL",
      "country_code": "BO",
      "admin1_id": 3904907,
      "timezone": "America/La_Paz",
      "population": 13482,
      "country_id": 3923057,
      "country": "Bolivia",
      "admin1": "Santa Cruz Department"
    },
    {
      "id": 3919789,
      "name": "Okinawa Tres",
      "latitude": -17.53117,
      "longitude": -62.92377,
      "elevation": 310,
      "feature_code": "PPL",
      "country_code": "BO",
      "admin1_id": 3904907,
      "timezone": "America/La_Paz",
      "country_id": 3923057,
      "country": "Bolivia",
      "admin1": "Santa Cruz Department"
    },
    {
      "id": 3909360,
      "name": "Okinawa Número Uno",
      "latitude": -17.23333,
      "longitude": -62.81667,
      "elevation": 260,
      "feature_code": "PPL",
      "country_code": "BO",
      "admin1_id": 3904907,
      "timezone": "America/La_Paz",
      "population": 4944,
      "country_id": 3923057,
      "country": "Bolivia",
      "admin1": "Santa Cruz Department"
    },
    {
      "id": 1854343,
      "name": "Okinawa Islands",
      "latitude": 26.69311,
      "longitude": 128.04364,
      "elevation": 9999,
      "feature_code": "ISLS",
      "country_code": "JP",
      "admin1_id": 1854345,
      "timezone": "Asia/Tokyo",
      "country_id": 1861060,
      "country": "Japan",
      "admin1": "Okinawa"
    }
  ],
  "generationtime_ms": 0.44500828
}